header: 
  seq: 23486
  stamp: 
    secs: 1682524783
    nsecs: 682576577
  frame_id: "world_vive"
twist: 
  linear: 
    x: -0.007065807469189167
    y: -0.0013545462861657143
    z: 0.01645025610923767
  angular: 
    x: 0.0012666370021179318
    y: -0.0905367061495781
    z: -0.00985753908753395
---
header: 
  seq: 23487
  stamp: 
    secs: 1682524783
    nsecs: 715909357
  frame_id: "world_vive"
twist: 
  linear: 
    x: -0.005327217746526003
    y: -0.0030211734119802713
    z: 0.016145391389727592
  angular: 
    x: 0.012514648027718067
    y: -0.06635348498821259
    z: -0.00867153238505125
---
header: 
  seq: 23488
  stamp: 
    secs: 1682524783
    nsecs: 749227797
  frame_id: "world_vive"
twist: 
  linear: 
    x: -0.004862975794821978
    y: -0.004194536712020636
    z: 0.015454218722879887
  angular: 
    x: 0.017950572073459625
    y: -0.05901755020022392
    z: -0.004280353896319866
---
header: 
  seq: 23489
  stamp: 
    secs: 1682524783
    nsecs: 782543320
  frame_id: "world_vive"
twist: 
  linear: 
    x: -0.0037265093997120857
    y: -0.006613548845052719
    z: 0.016263488680124283
  angular: 
    x: 0.025968994945287704
    y: -0.06881561130285263
    z: -0.020143011584877968
---
header: 
  seq: 23490
  stamp: 
    secs: 1682524783
    nsecs: 815904606
  frame_id: "world_vive"
twist: 
  linear: 
    x: -0.0038522868417203426
    y: -0.00767811294645071
    z: 0.015603923238813877
  angular: 
    x: 0.006155861541628838
    y: -0.07384280860424042
    z: -0.03813508525490761
---
header: 
  seq: 23491
  stamp: 
    secs: 1682524783
    nsecs: 849196810
  frame_id: "world_vive"
twist: 
  linear: 
    x: -0.003134641796350479
    y: -0.007655384484678507
    z: 0.012946019880473614
  angular: 
    x: -0.0074258847162127495
    y: -0.07593595236539841
    z: -0.054389581084251404
---
header: 
  seq: 23492
  stamp: 
    secs: 1682524783
    nsecs: 882532871
  frame_id: "world_vive"
twist: 
  linear: 
    x: -0.0014375520404428244
    y: -0.009168640710413456
    z: 0.011061790399253368
  angular: 
    x: -0.009615089744329453
    y: -0.0565524585545063
    z: -0.05840865522623062
---
header: 
  seq: 23493
  stamp: 
    secs: 1682524783
    nsecs: 915902220
  frame_id: "world_vive"
twist: 
  linear: 
    x: 0.0014114704681560397
    y: -0.008085113950073719
    z: 0.006206556688994169
  angular: 
    x: -0.015735207125544548
    y: -0.006509360391646624
    z: -0.0507403239607811
---
header: 
  seq: 23494
  stamp: 
    secs: 1682524783
    nsecs: 949240769
  frame_id: "world_vive"
twist: 
  linear: 
    x: 0.005090272519737482
    y: -0.0032403627410531044
    z: 0.004110477864742279
  angular: 
    x: -0.024054955691099167
    y: 0.016567902639508247
    z: -0.03013058379292488
---
header: 
  seq: 23495
  stamp: 
    secs: 1682524783
    nsecs: 982528932
  frame_id: "world_vive"
twist: 
  linear: 
    x: 0.006230611354112625
    y: -0.0010757253039628267
    z: 0.0024501688312739134
  angular: 
    x: -0.026471253484487534
    y: 0.03450831025838852
    z: -0.011129399761557579
---
header: 
  seq: 23496
  stamp: 
    secs: 1682524784
    nsecs:  15905332
  frame_id: "world_vive"
twist: 
  linear: 
    x: 0.005100454203784466
    y: 0.00022758431441616267
    z: 0.0007278059492819011
  angular: 
    x: -0.03231975436210632
    y: 0.04167140647768974
    z: 0.0007168759475462139
---
header: 
  seq: 23497
  stamp: 
    secs: 1682524784
    nsecs:  49239980
  frame_id: "world_vive"
twist: 
  linear: 
    x: 0.006875978782773018
    y: 0.002539597451686859
    z: -0.0008666181238368154
  angular: 
    x: -0.029208024963736534
    y: 0.02581098861992359
    z: -0.00045975882676430047
---
header: 
  seq: 23498
  stamp: 
    secs: 1682524784
    nsecs:  82538479
  frame_id: "world_vive"
twist: 
  linear: 
    x: 0.004465472884476185
    y: 0.003916937392205
    z: 0.0006397946272045374
  angular: 
    x: -0.04418013244867325
    y: 0.003752338234335184
    z: -0.013257038779556751
---
header: 
  seq: 23499
  stamp: 
    secs: 1682524784
    nsecs: 115942673
  frame_id: "world_vive"
twist: 
  linear: 
    x: 0.003792456118389964
    y: 0.0020812845323234797
    z: -0.000113894377136603
  angular: 
    x: -0.041862912476062775
    y: -0.01255805790424347
    z: -0.015598747879266739
---
header: 
  seq: 23500
  stamp: 
    secs: 1682524784
    nsecs: 149245147
  frame_id: "world_vive"
twist: 
  linear: 
    x: 0.002579187508672476
    y: -0.0006426023901440203
    z: 0.00044105382403358817
  angular: 
    x: -0.031157149001955986
    y: -0.026371298357844353
    z: -0.02174089476466179
---
header: 
  seq: 23501
  stamp: 
    secs: 1682524784
    nsecs: 182518389
  frame_id: "world_vive"
twist: 
  linear: 
    x: 0.0018216727767139673
    y: -0.0019843410700559616
    z: -0.0006972445407882333
  angular: 
    x: -0.004977808799594641
    y: -0.05164650082588196
    z: -0.025339366868138313
---
header: 
  seq: 23502
  stamp: 
    secs: 1682524784
    nsecs: 215889462
  frame_id: "world_vive"
twist: 
  linear: 
    x: 0.001596934162080288
    y: -0.0001867633400252089
    z: -0.00289513380266726
  angular: 
    x: 0.00694922124966979
    y: -0.03527413681149483
    z: -0.009269204922020435
---
header: 
  seq: 23503
  stamp: 
    secs: 1682524784
    nsecs: 249197129
  frame_id: "world_vive"
twist: 
  linear: 
    x: 0.0013544004177674651
    y: 0.003287469269707799
    z: -0.005845256615430117
  angular: 
    x: -0.014285524375736713
    y: -0.00016958630294539034
    z: 0.010822284035384655
---
header: 
  seq: 23504
  stamp: 
    secs: 1682524784
    nsecs: 282613120
  frame_id: "world_vive"
twist: 
  linear: 
    x: 0.002607109723612666
    y: 0.005645691882818937
    z: -0.008120865561068058
  angular: 
    x: -0.02071159891784191
    y: 0.019648686051368713
    z: 0.01873951219022274
---
header: 
  seq: 23505
  stamp: 
    secs: 1682524784
    nsecs: 315925915
  frame_id: "world_vive"
twist: 
  linear: 
    x: 0.0038546582218259573
    y: 0.006081726402044296
    z: -0.008678479120135307
  angular: 
    x: -0.01779286004602909
    y: 0.025130081921815872
    z: 0.02322116307914257
---
header: 
  seq: 23506
  stamp: 
    secs: 1682524784
    nsecs: 349202450
  frame_id: "world_vive"
twist: 
  linear: 
    x: 0.003065916243940592
    y: 0.0036492065992206335
    z: -0.00878636073321104
  angular: 
    x: -0.010670262388885021
    y: 0.0174516960978508
    z: 0.011464834213256836
---
header: 
  seq: 23507
  stamp: 
    secs: 1682524784
    nsecs: 382581202
  frame_id: "world_vive"
twist: 
  linear: 
    x: 0.0037179719656705856
    y: 0.001784496009349823
    z: -0.00842531118541956
  angular: 
    x: 0.007542090956121683
    y: 0.019149353727698326
    z: -0.0008233296684920788
---
header: 
  seq: 23508
  stamp: 
    secs: 1682524784
    nsecs: 415915805
  frame_id: "world_vive"
twist: 
  linear: 
    x: 0.0037217040080577135
    y: -0.0015681914519518614
    z: -0.00784806627780199
  angular: 
    x: 0.01866508089005947
    y: 0.013971983455121517
    z: -0.005578356329351664
---
header: 
  seq: 23509
  stamp: 
    secs: 1682524784
    nsecs: 449239864
  frame_id: "world_vive"
twist: 
  linear: 
    x: 0.003937631379812956
    y: -0.001765785156749189
    z: -0.007255596108734608
  angular: 
    x: 0.010320572182536125
    y: 0.016282912343740463
    z: -0.009837099350988865
---
header: 
  seq: 23510
  stamp: 
    secs: 1682524784
    nsecs: 482591371
  frame_id: "world_vive"
twist: 
  linear: 
    x: 0.004040897823870182
    y: -0.002210946287959814
    z: -0.0084540331736207
  angular: 
    x: 0.004939497914165258
    y: 0.02382395789027214
    z: -0.013132287189364433
---
header: 
  seq: 23511
  stamp: 
    secs: 1682524784
    nsecs: 515904565
  frame_id: "world_vive"
twist: 
  linear: 
    x: 0.0036841644905507565
    y: -0.001049481681548059
    z: -0.009487951174378395
  angular: 
    x: 0.0020091901533305645
    y: 0.023760180920362473
    z: -0.007093857973814011
---
header: 
  seq: 23512
  stamp: 
    secs: 1682524784
    nsecs: 549224270
  frame_id: "world_vive"
twist: 
  linear: 
    x: 0.003168639959767461
    y: -0.0001735655387165025
    z: -0.00896864477545023
  angular: 
    x: -0.009238275699317455
    y: 0.01992054283618927
    z: -0.00032364463550038636
---
header: 
  seq: 23513
  stamp: 
    secs: 1682524784
    nsecs: 582529225
  frame_id: "world_vive"
twist: 
  linear: 
    x: 0.0018013000953942537
    y: 0.0003157033061143011
    z: -0.008121076971292496
  angular: 
    x: -0.018947651609778404
    y: 0.024681124836206436
    z: 0.004113202448934317
---
header: 
  seq: 23514
  stamp: 
    secs: 1682524784
    nsecs: 615894544
  frame_id: "world_vive"
twist: 
  linear: 
    x: 0.0016227320302277803
    y: 0.0007447228999808431
    z: -0.007166036404669285
  angular: 
    x: -0.008456159383058548
    y: 0.016978731378912926
    z: -0.0021982730831950903
---
header: 
  seq: 23515
  stamp: 
    secs: 1682524784
    nsecs: 649238983
  frame_id: "world_vive"
twist: 
  linear: 
    x: 0.0023717882577329874
    y: -0.0008109011105261743
    z: -0.00508767319843173
  angular: 
    x: 0.010178523138165474
    y: -0.000564842950552702
    z: -0.0039366260170936584
---
header: 
  seq: 23516
  stamp: 
    secs: 1682524784
    nsecs: 682527813
  frame_id: "world_vive"
twist: 
  linear: 
    x: 0.0008181548910215497
    y: -0.0037114534061402082
    z: -0.002968326909467578
  angular: 
    x: 0.008612321689724922
    y: -0.015927810221910477
    z: -0.020443929359316826
---
header: 
  seq: 23517
  stamp: 
    secs: 1682524784
    nsecs: 715943446
  frame_id: "world_vive"
twist: 
  linear: 
    x: -0.0004811563703697175
    y: -0.0038385670632123947
    z: -0.00043975593871437013
  angular: 
    x: 0.013109538704156876
    y: -0.023906471207737923
    z: -0.025691084563732147
---
header: 
  seq: 23518
  stamp: 
    secs: 1682524784
    nsecs: 749257797
  frame_id: "world_vive"
twist: 
  linear: 
    x: -0.0012574180727824569
    y: -0.0035635645035654306
    z: 0.0015804689610376954
  angular: 
    x: 0.015455396845936775
    y: -0.041376009583473206
    z: -0.015276113525032997
---
header: 
  seq: 23519
  stamp: 
    secs: 1682524784
    nsecs: 782532295
  frame_id: "world_vive"
twist: 
  linear: 
    x: -0.002964470535516739
    y: -0.002707389183342457
    z: 0.0027411014307290316
  angular: 
    x: 0.01945403218269348
    y: -0.02611922286450863
    z: -0.006820397917181253
---
header: 
  seq: 23520
  stamp: 
    secs: 1682524784
    nsecs: 815869237
  frame_id: "world_vive"
twist: 
  linear: 
    x: -0.0034609839785844088
    y: -0.0006883058231323957
    z: 0.002222559880465269
  angular: 
    x: 0.02234397642314434
    y: -0.02104790508747101
    z: 0.00698469951748848
---
header: 
  seq: 23521
  stamp: 
    secs: 1682524784
    nsecs: 849200699
  frame_id: "world_vive"
twist: 
  linear: 
    x: -0.003069319762289524
    y: 0.0028785602189600468
    z: 0.002102605300024152
  angular: 
    x: -0.007109228987246752
    y: -0.003203332656994462
    z: 0.022820264101028442
---
header: 
  seq: 23522
  stamp: 
    secs: 1682524784
    nsecs: 882534474
  frame_id: "world_vive"
twist: 
  linear: 
    x: -0.0020857269410043955
    y: 0.003820977406576276
    z: 0.0027119871228933334
  angular: 
    x: -0.008708513341844082
    y: 0.014483965933322906
    z: 0.024627136066555977
---
header: 
  seq: 23523
  stamp: 
    secs: 1682524784
    nsecs: 915866870
  frame_id: "world_vive"
twist: 
  linear: 
    x: -0.0018802478443831205
    y: 0.0032529199961572886
    z: 0.0023269422817975283
  angular: 
    x: 0.016604924574494362
    y: 0.014928966760635376
    z: 0.028899498283863068
---
header: 
  seq: 23524
  stamp: 
    secs: 1682524784
    nsecs: 949245497
  frame_id: "world_vive"
twist: 
  linear: 
    x: -0.0022973427549004555
    y: 0.00272509572096169
    z: 0.004438226576894522
  angular: 
    x: 0.0017020695377141237
    y: 0.01711295172572136
    z: 0.02084210515022278
---
header: 
  seq: 23525
  stamp: 
    secs: 1682524784
    nsecs: 982581517
  frame_id: "world_vive"
twist: 
  linear: 
    x: -0.0009458736167289317
    y: 0.0006907617789693177
    z: 0.005738853011280298
  angular: 
    x: 0.007320296484977007
    y: 0.0160441305488348
    z: 0.01630709320306778
---
header: 
  seq: 23526
  stamp: 
    secs: 1682524785
    nsecs:  15889411
  frame_id: "world_vive"
twist: 
  linear: 
    x: -0.001674950704909861
    y: 0.0005769194685854018
    z: 0.005384526215493679
  angular: 
    x: 0.015981364995241165
    y: 0.013501818291842937
    z: 0.0028916471637785435
---
header: 
  seq: 23527
  stamp: 
    secs: 1682524785
    nsecs:  49239619
  frame_id: "world_vive"
twist: 
  linear: 
    x: -0.0008652120595797896
    y: -0.000746651494409889
    z: 0.005561764817684889
  angular: 
    x: 0.02735115960240364
    y: 0.019609758630394936
    z: -0.0029219635762274265
---
header: 
  seq: 23528
  stamp: 
    secs: 1682524785
    nsecs:  82573600
  frame_id: "world_vive"
twist: 
  linear: 
    x: 0.00046898596337996423
    y: 0.00042283497168682516
    z: 0.004129995591938496
  angular: 
    x: 0.025104403495788574
    y: 0.024303069338202477
    z: 0.005798053927719593
---
header: 
  seq: 23529
  stamp: 
    secs: 1682524785
    nsecs: 115859360
  frame_id: "world_vive"
twist: 
  linear: 
    x: -0.0005292315618135035
    y: 0.0006409843917936087
    z: 0.002385614672675729
  angular: 
    x: 0.024168560281395912
    y: 0.019056933000683784
    z: 0.02044270746409893
---
header: 
  seq: 23530
  stamp: 
    secs: 1682524785
    nsecs: 149199423
  frame_id: "world_vive"
twist: 
  linear: 
    x: -0.000942099024541676
    y: 0.001956610009074211
    z: 0.0010056262835860252
  angular: 
    x: 0.015008458867669106
    y: 0.022564301267266273
    z: 0.023036515340209007
---
header: 
  seq: 23531
  stamp: 
    secs: 1682524785
    nsecs: 182558738
  frame_id: "world_vive"
twist: 
  linear: 
    x: -0.003881088923662901
    y: 0.003977167885750532
    z: 0.003969969693571329
  angular: 
    x: 0.011430379934608936
    y: -0.011367606930434704
    z: 0.03433859720826149
---
header: 
  seq: 23532
  stamp: 
    secs: 1682524785
    nsecs: 215909225
  frame_id: "world_vive"
twist: 
  linear: 
    x: -0.008913525380194187
    y: 0.005885764490813017
    z: 0.008743624202907085
  angular: 
    x: 0.002536189742386341
    y: -0.0755043625831604
    z: 0.051849447190761566
---
header: 
  seq: 23533
  stamp: 
    secs: 1682524785
    nsecs: 249234309
  frame_id: "world_vive"
twist: 
  linear: 
    x: -0.016505222767591476
    y: 0.008069914765655994
    z: 0.016665883362293243
  angular: 
    x: -0.020698627457022667
    y: -0.17964030802249908
    z: 0.053414393216371536
---
header: 
  seq: 23534
  stamp: 
    secs: 1682524785
    nsecs: 282568298
  frame_id: "world_vive"
twist: 
  linear: 
    x: -0.02458725869655609
    y: 0.009552947245538235
    z: 0.02657429687678814
  angular: 
    x: -0.014505540952086449
    y: -0.311306893825531
    z: 0.06575450301170349
---
header: 
  seq: 23535
  stamp: 
    secs: 1682524785
    nsecs: 315901536
  frame_id: "world_vive"
twist: 
  linear: 
    x: -0.03652588650584221
    y: 0.010330184362828732
    z: 0.036826714873313904
  angular: 
    x: -0.015380476601421833
    y: -0.44019484519958496
    z: 0.08673984557390213
---
header: 
  seq: 23536
  stamp: 
    secs: 1682524785
    nsecs: 349245666
  frame_id: "world_vive"
twist: 
  linear: 
    x: -0.044294171035289764
    y: 0.015674076974391937
    z: 0.04308565706014633
  angular: 
    x: -0.038232170045375824
    y: -0.5353551506996155
    z: 0.1310611516237259
---
header: 
  seq: 23537
  stamp: 
    secs: 1682524785
    nsecs: 382568898
  frame_id: "world_vive"
twist: 
  linear: 
    x: -0.05254517123103142
    y: 0.01570948399603367
    z: 0.04874635860323906
  angular: 
    x: -0.056106362491846085
    y: -0.6487941741943359
    z: 0.13430918753147125
---
header: 
  seq: 23538
  stamp: 
    secs: 1682524785
    nsecs: 415896130
  frame_id: "world_vive"
twist: 
  linear: 
    x: -0.05691613256931305
    y: 0.007973616011440754
    z: 0.047714464366436005
  angular: 
    x: 0.010449949651956558
    y: -0.6764418482780457
    z: 0.11903270334005356
---
header: 
  seq: 23539
  stamp: 
    secs: 1682524785
    nsecs: 449237316
  frame_id: "world_vive"
twist: 
  linear: 
    x: -0.06023183465003967
    y: -0.012893796898424625
    z: 0.04994455352425575
  angular: 
    x: 0.13014522194862366
    y: -0.6413849592208862
    z: 0.046827469021081924
---
header: 
  seq: 23540
  stamp: 
    secs: 1682524785
    nsecs: 482558152
  frame_id: "world_vive"
twist: 
  linear: 
    x: -0.05843102186918259
    y: -0.03603062778711319
    z: 0.05016764998435974
  angular: 
    x: 0.3335683047771454
    y: -0.5480356812477112
    z: -0.023455452173948288
---
header: 
  seq: 23541
  stamp: 
    secs: 1682524785
    nsecs: 515903044
  frame_id: "world_vive"
twist: 
  linear: 
    x: -0.04929274320602417
    y: -0.04608682915568352
    z: 0.04632905125617981
  angular: 
    x: 0.49647024273872375
    y: -0.40013328194618225
    z: -0.03135884925723076
---
header: 
  seq: 23542
  stamp: 
    secs: 1682524785
    nsecs: 549238954
  frame_id: "world_vive"
twist: 
  linear: 
    x: -0.03925934433937073
    y: -0.032988786697387695
    z: 0.04099278151988983
  angular: 
    x: 0.4767630994319916
    y: -0.2641335725784302
    z: 0.04585251957178116
---
header: 
  seq: 23543
  stamp: 
    secs: 1682524785
    nsecs: 582570233
  frame_id: "world_vive"
twist: 
  linear: 
    x: -0.028985878452658653
    y: -0.013388564810156822
    z: 0.034086961299180984
  angular: 
    x: 0.27366402745246887
    y: -0.1542065143585205
    z: 0.13846267759799957
---
header: 
  seq: 23544
  stamp: 
    secs: 1682524785
    nsecs: 615899603
  frame_id: "world_vive"
twist: 
  linear: 
    x: -0.025080490857362747
    y: 0.011335465125739574
    z: 0.02462778426706791
  angular: 
    x: 0.01782427914440632
    y: -0.04767259582877159
    z: 0.18823827803134918
---
header: 
  seq: 23545
  stamp: 
    secs: 1682524785
    nsecs: 649195363
  frame_id: "world_vive"
twist: 
  linear: 
    x: -0.02183796651661396
    y: 0.02556624449789524
    z: 0.016467392444610596
  angular: 
    x: -0.13540804386138916
    y: -0.005606807768344879
    z: 0.1794643998146057
---
header: 
  seq: 23546
  stamp: 
    secs: 1682524785
    nsecs: 682568975
  frame_id: "world_vive"
twist: 
  linear: 
    x: -0.018360229209065437
    y: 0.028091086074709892
    z: 0.006535776425153017
  angular: 
    x: -0.1785796880722046
    y: 0.027500202879309654
    z: 0.1570972204208374
---
header: 
  seq: 23547
  stamp: 
    secs: 1682524785
    nsecs: 715899937
  frame_id: "world_vive"
twist: 
  linear: 
    x: -0.016346143558621407
    y: 0.02878015860915184
    z: 0.001112652476876974
  angular: 
    x: -0.2003105729818344
    y: 0.031366948038339615
    z: 0.13728535175323486
---
header: 
  seq: 23548
  stamp: 
    secs: 1682524785
    nsecs: 749236147
  frame_id: "world_vive"
twist: 
  linear: 
    x: -0.015319577418267727
    y: 0.026137471199035645
    z: -0.002690646331757307
  angular: 
    x: -0.21960583329200745
    y: 0.029056504368782043
    z: 0.10596323013305664
---
header: 
  seq: 23549
  stamp: 
    secs: 1682524785
    nsecs: 782574683
  frame_id: "world_vive"
twist: 
  linear: 
    x: -0.01682785153388977
    y: 0.021610718220472336
    z: -0.004202250856906176
  angular: 
    x: -0.21066081523895264
    y: 0.03623587265610695
    z: 0.060804255306720734
---
header: 
  seq: 23550
  stamp: 
    secs: 1682524785
    nsecs: 815868611
  frame_id: "world_vive"
twist: 
  linear: 
    x: -0.01416022889316082
    y: 0.018957285210490227
    z: -0.006421766709536314
  angular: 
    x: -0.1514725238084793
    y: 0.05442257225513458
    z: 0.07904419302940369
---
header: 
  seq: 23551
  stamp: 
    secs: 1682524785
    nsecs: 849245666
  frame_id: "world_vive"
twist: 
  linear: 
    x: -0.013456338085234165
    y: 0.018503664061427116
    z: -0.006460935343056917
  angular: 
    x: -0.100221186876297
    y: 0.04631191864609718
    z: 0.12220247834920883
---
header: 
  seq: 23552
  stamp: 
    secs: 1682524785
    nsecs: 882582804
  frame_id: "world_vive"
twist: 
  linear: 
    x: -0.014237018302083015
    y: 0.02046121284365654
    z: -0.006127605214715004
  angular: 
    x: -0.07397521287202835
    y: 0.034004271030426025
    z: 0.15578682720661163
---
header: 
  seq: 23553
  stamp: 
    secs: 1682524785
    nsecs: 915956709
  frame_id: "world_vive"
twist: 
  linear: 
    x: -0.014793780632317066
    y: 0.022738898172974586
    z: -0.005415171850472689
  angular: 
    x: -0.05496233329176903
    y: 0.018293121829628944
    z: 0.2000569850206375
---
header: 
  seq: 23554
  stamp: 
    secs: 1682524785
    nsecs: 949229631
  frame_id: "world_vive"
twist: 
  linear: 
    x: -0.02329169772565365
    y: 0.02346050925552845
    z: -0.003238292643800378
  angular: 
    x: -0.07166416198015213
    y: -0.041684478521347046
    z: 0.19705592095851898
---
header: 
  seq: 23555
  stamp: 
    secs: 1682524785
    nsecs: 982577105
  frame_id: "world_vive"
twist: 
  linear: 
    x: -0.03285185247659683
    y: 0.024561533704400063
    z: 0.0005149927455931902
  angular: 
    x: -0.12389279156923294
    y: -0.11444079875946045
    z: 0.15052896738052368
---
header: 
  seq: 23556
  stamp: 
    secs: 1682524786
    nsecs:  15905950
  frame_id: "world_vive"
twist: 
  linear: 
    x: -0.0394110344350338
    y: 0.0200864989310503
    z: 0.005255162715911865
  angular: 
    x: -0.09404200315475464
    y: -0.1904507577419281
    z: 0.11026307195425034
---
header: 
  seq: 23557
  stamp: 
    secs: 1682524786
    nsecs:  49233518
  frame_id: "world_vive"
twist: 
  linear: 
    x: -0.04225144535303116
    y: 0.010582703165709972
    z: 0.006448287982493639
  angular: 
    x: 0.001545049948617816
    y: -0.21967938542366028
    z: 0.08413851261138916
---
header: 
  seq: 23558
  stamp: 
    secs: 1682524786
    nsecs:  82551904
  frame_id: "world_vive"
twist: 
  linear: 
    x: -0.04102388769388199
    y: 0.000911994487978518
    z: 0.006625710986554623
  angular: 
    x: 0.08486922830343246
    y: -0.21778570115566254
    z: 0.026781680062413216
---
header: 
  seq: 23559
  stamp: 
    secs: 1682524786
    nsecs: 115902278
  frame_id: "world_vive"
twist: 
  linear: 
    x: -0.04241199046373367
    y: -0.014967876486480236
    z: 0.007236291188746691
  angular: 
    x: 0.15702921152114868
    y: -0.2140575796365738
    z: -0.10213050246238708
---
header: 
  seq: 23560
  stamp: 
    secs: 1682524786
    nsecs: 149192850
  frame_id: "world_vive"
twist: 
  linear: 
    x: -0.04292137548327446
    y: -0.03730371966958046
    z: 0.008458234369754791
  angular: 
    x: 0.29634910821914673
    y: -0.1796749085187912
    z: -0.24260112643241882
---
header: 
  seq: 23561
  stamp: 
    secs: 1682524786
    nsecs: 182566162
  frame_id: "world_vive"
twist: 
  linear: 
    x: -0.04181541129946709
    y: -0.05966475233435631
    z: 0.012620458379387856
  angular: 
    x: 0.47053536772727966
    y: -0.16435542702674866
    z: -0.3686748445034027
---
header: 
  seq: 23562
  stamp: 
    secs: 1682524786
    nsecs: 215862421
  frame_id: "world_vive"
twist: 
  linear: 
    x: -0.0456404872238636
    y: -0.08053642511367798
    z: 0.014708355069160461
  angular: 
    x: 0.6690441370010376
    y: -0.16713732481002808
    z: -0.43052372336387634
---
header: 
  seq: 23563
  stamp: 
    secs: 1682524786
    nsecs: 249207783
  frame_id: "world_vive"
twist: 
  linear: 
    x: -0.05270480364561081
    y: -0.08963409811258316
    z: 0.013575377874076366
  angular: 
    x: 0.7805764079093933
    y: -0.20655691623687744
    z: -0.43713682889938354
---
header: 
  seq: 23564
  stamp: 
    secs: 1682524786
    nsecs: 282565556
  frame_id: "world_vive"
twist: 
  linear: 
    x: -0.06210314482450485
    y: -0.08920217305421829
    z: 0.012698449194431305
  angular: 
    x: 0.7466654777526855
    y: -0.25678884983062744
    z: -0.4896375834941864
---
header: 
  seq: 23565
  stamp: 
    secs: 1682524786
    nsecs: 315904674
  frame_id: "world_vive"
twist: 
  linear: 
    x: -0.07015207409858704
    y: -0.08426953852176666
    z: 0.010711376555263996
  angular: 
    x: 0.6572358012199402
    y: -0.28429168462753296
    z: -0.5595373511314392
---
header: 
  seq: 23566
  stamp: 
    secs: 1682524786
    nsecs: 349278989
  frame_id: "world_vive"
twist: 
  linear: 
    x: -0.08367471396923065
    y: -0.07603970915079117
    z: 0.012894509360194206
  angular: 
    x: 0.540707528591156
    y: -0.33601245284080505
    z: -0.6291013360023499
---
header: 
  seq: 23567
  stamp: 
    secs: 1682524786
    nsecs: 382535779
  frame_id: "world_vive"
twist: 
  linear: 
    x: -0.08810003101825714
    y: -0.061486177146434784
    z: 0.021162884309887886
  angular: 
    x: 0.40705597400665283
    y: -0.5021705031394958
    z: -0.5335330963134766
---
header: 
  seq: 23568
  stamp: 
    secs: 1682524786
    nsecs: 415914017
  frame_id: "world_vive"
twist: 
  linear: 
    x: -0.0890306755900383
    y: -0.04174213856458664
    z: 0.03134021535515785
  angular: 
    x: 0.3126973509788513
    y: -0.7742065191268921
    z: -0.3503662049770355
---
header: 
  seq: 23569
  stamp: 
    secs: 1682524786
    nsecs: 449243595
  frame_id: "world_vive"
twist: 
  linear: 
    x: -0.08756984770298004
    y: -0.02558671310544014
    z: 0.04057746008038521
  angular: 
    x: 0.2655864953994751
    y: -0.8923666477203369
    z: -0.2232445627450943
---
header: 
  seq: 23570
  stamp: 
    secs: 1682524786
    nsecs: 482616835
  frame_id: "world_vive"
twist: 
  linear: 
    x: -0.092154361307621
    y: -0.01794763281941414
    z: 0.04507678747177124
  angular: 
    x: 0.2510654926300049
    y: -1.0427961349487305
    z: -0.14150841534137726
---
header: 
  seq: 23571
  stamp: 
    secs: 1682524786
    nsecs: 515912137
  frame_id: "world_vive"
twist: 
  linear: 
    x: -0.10602808743715286
    y: -0.01655479148030281
    z: 0.05117740109562874
  angular: 
    x: 0.17435544729232788
    y: -1.2461755275726318
    z: -0.18552224338054657
---
header: 
  seq: 23572
  stamp: 
    secs: 1682524786
    nsecs: 549244549
  frame_id: "world_vive"
twist: 
  linear: 
    x: -0.12542513012886047
    y: -0.011521929875016212
    z: 0.06066310778260231
  angular: 
    x: 0.0432952381670475
    y: -1.4116982221603394
    z: -0.17992299795150757
---
header: 
  seq: 23573
  stamp: 
    secs: 1682524786
    nsecs: 582579691
  frame_id: "world_vive"
twist: 
  linear: 
    x: -0.14423979818820953
    y: -0.004014693666249514
    z: 0.06522423028945923
  angular: 
    x: -0.03443704545497894
    y: -1.6003284454345703
    z: -0.15960310399532318
---
header: 
  seq: 23574
  stamp: 
    secs: 1682524786
    nsecs: 615916761
  frame_id: "world_vive"
twist: 
  linear: 
    x: -0.1548442840576172
    y: -0.0071833087131381035
    z: 0.05923069640994072
  angular: 
    x: 0.018434088677167892
    y: -1.7193877696990967
    z: -0.04183273762464523
---
header: 
  seq: 23575
  stamp: 
    secs: 1682524786
    nsecs: 649243485
  frame_id: "world_vive"
twist: 
  linear: 
    x: -0.15525224804878235
    y: -0.010774645023047924
    z: 0.05500199273228645
  angular: 
    x: 0.10734203457832336
    y: -1.795860767364502
    z: 0.09414729475975037
---
header: 
  seq: 23576
  stamp: 
    secs: 1682524786
    nsecs: 682534651
  frame_id: "world_vive"
twist: 
  linear: 
    x: -0.16165316104888916
    y: -0.019650045782327652
    z: 0.052136581391096115
  angular: 
    x: 0.17905613780021667
    y: -1.8528366088867188
    z: 0.13092945516109467
---
header: 
  seq: 23577
  stamp: 
    secs: 1682524786
    nsecs: 715860422
  frame_id: "world_vive"
twist: 
  linear: 
    x: -0.16776861250400543
    y: -0.03559219837188721
    z: 0.05375866964459419
  angular: 
    x: 0.27290546894073486
    y: -1.92961847782135
    z: 0.2192099392414093
---
header: 
  seq: 23578
  stamp: 
    secs: 1682524786
    nsecs: 749201524
  frame_id: "world_vive"
twist: 
  linear: 
    x: -0.1757228523492813
    y: -0.05422806739807129
    z: 0.05468406528234482
  angular: 
    x: 0.3796011507511139
    y: -2.0142674446105957
    z: 0.2461092323064804
---
header: 
  seq: 23579
  stamp: 
    secs: 1682524786
    nsecs: 782560064
  frame_id: "world_vive"
twist: 
  linear: 
    x: -0.1816946268081665
    y: -0.07305234670639038
    z: 0.04906276613473892
  angular: 
    x: 0.5043805241584778
    y: -1.993477463722229
    z: 0.1843509078025818
---
header: 
  seq: 23580
  stamp: 
    secs: 1682524786
    nsecs: 815903244
  frame_id: "world_vive"
twist: 
  linear: 
    x: -0.18373246490955353
    y: -0.08381342887878418
    z: 0.03770064190030098
  angular: 
    x: 0.5700041055679321
    y: -1.9775699377059937
    z: 0.15893356502056122
---
header: 
  seq: 23581
  stamp: 
    secs: 1682524786
    nsecs: 849225525
  frame_id: "world_vive"
twist: 
  linear: 
    x: -0.18523649871349335
    y: -0.08844155818223953
    z: 0.024815212935209274
  angular: 
    x: 0.6054490208625793
    y: -2.052485466003418
    z: 0.08103133738040924
---
header: 
  seq: 23582
  stamp: 
    secs: 1682524786
    nsecs: 882568880
  frame_id: "world_vive"
twist: 
  linear: 
    x: -0.1754990518093109
    y: -0.07416249811649323
    z: 0.019026393070816994
  angular: 
    x: 0.4796242117881775
    y: -1.98431396484375
    z: 0.08520711213350296
---
header: 
  seq: 23583
  stamp: 
    secs: 1682524786
    nsecs: 915858281
  frame_id: "world_vive"
twist: 
  linear: 
    x: -0.15631325542926788
    y: -0.0646209865808487
    z: 0.012186911888420582
  angular: 
    x: 0.37858879566192627
    y: -1.7921968698501587
    z: 0.07266321778297424
---
header: 
  seq: 23584
  stamp: 
    secs: 1682524786
    nsecs: 949238840
  frame_id: "world_vive"
twist: 
  linear: 
    x: -0.14016196131706238
    y: -0.050937555730342865
    z: 0.006596759427338839
  angular: 
    x: 0.24527974426746368
    y: -1.6433786153793335
    z: 0.0837690606713295
---
header: 
  seq: 23585
  stamp: 
    secs: 1682524786
    nsecs: 982542918
  frame_id: "world_vive"
twist: 
  linear: 
    x: -0.11826727539300919
    y: -0.037634555250406265
    z: 0.004642946645617485
  angular: 
    x: 0.17082132399082184
    y: -1.343993067741394
    z: -0.02711479924619198
---
header: 
  seq: 23586
  stamp: 
    secs: 1682524787
    nsecs:  15859805
  frame_id: "world_vive"
twist: 
  linear: 
    x: -0.08618701249361038
    y: -0.028058471158146858
    z: 0.005859562661498785
  angular: 
    x: 0.13621267676353455
    y: -0.9400132894515991
    z: -0.09463950246572495
---
header: 
  seq: 23587
  stamp: 
    secs: 1682524787
    nsecs:  49193112
  frame_id: "world_vive"
twist: 
  linear: 
    x: -0.05265619605779648
    y: -0.018533244729042053
    z: 0.015346035361289978
  angular: 
    x: 0.04970980063080788
    y: -0.5879578590393066
    z: -0.055652353912591934
---
header: 
  seq: 23588
  stamp: 
    secs: 1682524787
    nsecs:  82571409
  frame_id: "world_vive"
twist: 
  linear: 
    x: -0.029567694291472435
    y: -0.010949036106467247
    z: 0.02523723989725113
  angular: 
    x: -0.010084675624966621
    y: -0.2829476594924927
    z: -0.03532947599887848
---
header: 
  seq: 23589
  stamp: 
    secs: 1682524787
    nsecs: 115902019
  frame_id: "world_vive"
twist: 
  linear: 
    x: -0.01095174066722393
    y: -0.011760960333049297
    z: 0.0333559587597847
  angular: 
    x: 0.001381538575515151
    y: -0.057089753448963165
    z: -0.014662805013358593
---
header: 
  seq: 23590
  stamp: 
    secs: 1682524787
    nsecs: 149236026
  frame_id: "world_vive"
twist: 
  linear: 
    x: -0.002633164869621396
    y: -0.020513873547315598
    z: 0.034033581614494324
  angular: 
    x: 0.09277427196502686
    y: 0.029798362404108047
    z: 0.026011046022176743
---
header: 
  seq: 23591
  stamp: 
    secs: 1682524787
    nsecs: 182566930
  frame_id: "world_vive"
twist: 
  linear: 
    x: -0.00026822887593880296
    y: -0.02717338129878044
    z: 0.032429903745651245
  angular: 
    x: 0.13730889558792114
    y: -0.0037861645687371492
    z: 0.07309990376234055
---
header: 
  seq: 23592
  stamp: 
    secs: 1682524787
    nsecs: 215902050
  frame_id: "world_vive"
twist: 
  linear: 
    x: -0.0018972146790474653
    y: -0.028949545696377754
    z: 0.023597056046128273
  angular: 
    x: 0.1932661533355713
    y: -0.08748257160186768
    z: 0.05626099184155464
---
header: 
  seq: 23593
  stamp: 
    secs: 1682524787
    nsecs: 249244663
  frame_id: "world_vive"
twist: 
  linear: 
    x: -0.001211081282235682
    y: -0.026425737887620926
    z: 0.016748087480664253
  angular: 
    x: 0.2030579149723053
    y: -0.15871252119541168
    z: 0.02638842537999153
---
header: 
  seq: 23594
  stamp: 
    secs: 1682524787
    nsecs: 282527244
  frame_id: "world_vive"
twist: 
  linear: 
    x: -0.0009031207882799208
    y: -0.019010121002793312
    z: 0.010768006555736065
  angular: 
    x: 0.15414266288280487
    y: -0.1877361238002777
    z: 0.005029391031712294
---
header: 
  seq: 23595
  stamp: 
    secs: 1682524787
    nsecs: 315902375
  frame_id: "world_vive"
twist: 
  linear: 
    x: 0.002324923872947693
    y: -0.009311902336776257
    z: 0.004569516982883215
  angular: 
    x: 0.10868242383003235
    y: -0.18808113038539886
    z: -0.04435431584715843
---
header: 
  seq: 23596
  stamp: 
    secs: 1682524787
    nsecs: 349198453
  frame_id: "world_vive"
twist: 
  linear: 
    x: 0.0065884822979569435
    y: -0.002472383202984929
    z: 0.0014433643082156777
  angular: 
    x: 0.07246287912130356
    y: -0.14623168110847473
    z: -0.0695095807313919
---
header: 
  seq: 23597
  stamp: 
    secs: 1682524787
    nsecs: 382574094
  frame_id: "world_vive"
twist: 
  linear: 
    x: 0.007101588416844606
    y: 0.0027304962277412415
    z: 0.00047842992353253067
  angular: 
    x: 0.042499370872974396
    y: -0.09386894851922989
    z: -0.11706207692623138
---
header: 
  seq: 23598
  stamp: 
    secs: 1682524787
    nsecs: 415901970
  frame_id: "world_vive"
twist: 
  linear: 
    x: 0.012228197418153286
    y: 0.0023868142161518335
    z: 0.00036196879227645695
  angular: 
    x: 0.04178304970264435
    y: -0.03340600058436394
    z: -0.13544002175331116
---
header: 
  seq: 23599
  stamp: 
    secs: 1682524787
    nsecs: 449232135
  frame_id: "world_vive"
twist: 
  linear: 
    x: 0.01794208399951458
    y: 0.004943392239511013
    z: 0.002010165946558118
  angular: 
    x: 0.04475042223930359
    y: 0.0330364890396595
    z: -0.14829526841640472
---
header: 
  seq: 23600
  stamp: 
    secs: 1682524787
    nsecs: 482555663
  frame_id: "world_vive"
twist: 
  linear: 
    x: 0.031126538291573524
    y: 0.009450962767004967
    z: 0.005008712876588106
  angular: 
    x: 0.009514285251498222
    y: 0.16496990621089935
    z: -0.12166637927293777
---
header: 
  seq: 23601
  stamp: 
    secs: 1682524787
    nsecs: 515903849
  frame_id: "world_vive"
twist: 
  linear: 
    x: 0.04952111095190048
    y: 0.020192094147205353
    z: 0.0139016667380929
  angular: 
    x: -0.08051013946533203
    y: 0.3570093512535095
    z: -0.13419868052005768
---
header: 
  seq: 23602
  stamp: 
    secs: 1682524787
    nsecs: 549199817
  frame_id: "world_vive"
twist: 
  linear: 
    x: 0.06900966912508011
    y: 0.03140408918261528
    z: 0.023045945912599564
  angular: 
    x: -0.18207815289497375
    y: 0.5804526209831238
    z: -0.13837063312530518
---
header: 
  seq: 23603
  stamp: 
    secs: 1682524787
    nsecs: 582556775
  frame_id: "world_vive"
twist: 
  linear: 
    x: 0.09276017546653748
    y: 0.03298192098736763
    z: 0.02449694462120533
  angular: 
    x: -0.20290982723236084
    y: 0.7910862565040588
    z: -0.13658633828163147
---
header: 
  seq: 23604
  stamp: 
    secs: 1682524787
    nsecs: 615907736
  frame_id: "world_vive"
twist: 
  linear: 
    x: 0.10898687690496445
    y: 0.03011007234454155
    z: 0.021540040150284767
  angular: 
    x: -0.15569160878658295
    y: 0.9835827946662903
    z: -0.14568524062633514
---
header: 
  seq: 23605
  stamp: 
    secs: 1682524787
    nsecs: 649238895
  frame_id: "world_vive"
twist: 
  linear: 
    x: 0.12760251760482788
    y: 0.028037890791893005
    z: 0.02064199186861515
  angular: 
    x: -0.10355885326862335
    y: 1.188023567199707
    z: -0.1515076607465744
---
header: 
  seq: 23606
  stamp: 
    secs: 1682524787
    nsecs: 682566749
  frame_id: "world_vive"
twist: 
  linear: 
    x: 0.1370406448841095
    y: 0.02574610337615013
    z: 0.020743899047374725
  angular: 
    x: -0.09456664323806763
    y: 1.3073374032974243
    z: -0.19556154310703278
---
header: 
  seq: 23607
  stamp: 
    secs: 1682524787
    nsecs: 715899159
  frame_id: "world_vive"
twist: 
  linear: 
    x: 0.14159341156482697
    y: 0.01317867636680603
    z: 0.016347093507647514
  angular: 
    x: 0.014768030494451523
    y: 1.329009771347046
    z: -0.17704501748085022
---
header: 
  seq: 23608
  stamp: 
    secs: 1682524787
    nsecs: 749240696
  frame_id: "world_vive"
twist: 
  linear: 
    x: 0.14837463200092316
    y: -0.0065027386881411076
    z: 0.007199046202003956
  angular: 
    x: 0.18157725036144257
    y: 1.4412639141082764
    z: -0.09240802377462387
---
header: 
  seq: 23609
  stamp: 
    secs: 1682524787
    nsecs: 782571621
  frame_id: "world_vive"
twist: 
  linear: 
    x: 0.1516096293926239
    y: -0.016300974413752556
    z: -0.0034245329443365335
  angular: 
    x: 0.28688159584999084
    y: 1.5508713722229004
    z: 0.03478315472602844
---
header: 
  seq: 23610
  stamp: 
    secs: 1682524787
    nsecs: 815862264
  frame_id: "world_vive"
twist: 
  linear: 
    x: 0.15277501940727234
    y: -0.025120755657553673
    z: -0.012203363701701164
  angular: 
    x: 0.4035681486129761
    y: 1.6761186122894287
    z: 0.062157079577445984
---
header: 
  seq: 23611
  stamp: 
    secs: 1682524787
    nsecs: 849242807
  frame_id: "world_vive"
twist: 
  linear: 
    x: 0.16068041324615479
    y: -0.03127162158489227
    z: -0.01449816208332777
  angular: 
    x: 0.45461711287498474
    y: 1.8313045501708984
    z: 0.200224369764328
---
header: 
  seq: 23612
  stamp: 
    secs: 1682524787
    nsecs: 882570906
  frame_id: "world_vive"
twist: 
  linear: 
    x: 0.1612062305212021
    y: -0.035354066640138626
    z: -0.022349754348397255
  angular: 
    x: 0.46989259123802185
    y: 1.8806915283203125
    z: 0.08733946084976196
---
header: 
  seq: 23613
  stamp: 
    secs: 1682524787
    nsecs: 915902407
  frame_id: "world_vive"
twist: 
  linear: 
    x: 0.16673783957958221
    y: -0.04098471626639366
    z: -0.035559337586164474
  angular: 
    x: 0.5191389918327332
    y: 1.9603608846664429
    z: -0.06825076043605804
---
header: 
  seq: 23614
  stamp: 
    secs: 1682524787
    nsecs: 949220344
  frame_id: "world_vive"
twist: 
  linear: 
    x: 0.17155060172080994
    y: -0.04677214100956917
    z: -0.05313875526189804
  angular: 
    x: 0.5582857728004456
    y: 2.0081732273101807
    z: -0.15367905795574188
---
header: 
  seq: 23615
  stamp: 
    secs: 1682524787
    nsecs: 982565369
  frame_id: "world_vive"
twist: 
  linear: 
    x: 0.165760338306427
    y: -0.03167452663183212
    z: -0.05464492365717888
  angular: 
    x: 0.3963080644607544
    y: 1.9208427667617798
    z: -0.2027333676815033
---
header: 
  seq: 23616
  stamp: 
    secs: 1682524788
    nsecs:  15907877
  frame_id: "world_vive"
twist: 
  linear: 
    x: 0.15810103714466095
    y: -0.014282961376011372
    z: -0.06485025584697723
  angular: 
    x: 0.16558942198753357
    y: 1.768988013267517
    z: -0.17265726625919342
---
header: 
  seq: 23617
  stamp: 
    secs: 1682524788
    nsecs:  49237428
  frame_id: "world_vive"
twist: 
  linear: 
    x: 0.13432618975639343
    y: 0.007177161518484354
    z: -0.07654058188199997
  angular: 
    x: -0.03444162383675575
    y: 1.478019118309021
    z: -0.23012271523475647
---
header: 
  seq: 23618
  stamp: 
    secs: 1682524788
    nsecs:  82568339
  frame_id: "world_vive"
twist: 
  linear: 
    x: 0.1204015463590622
    y: 0.025980792939662933
    z: -0.08616197854280472
  angular: 
    x: -0.1646149903535843
    y: 1.2670210599899292
    z: -0.17042900621891022
---
header: 
  seq: 23619
  stamp: 
    secs: 1682524788
    nsecs: 115881544
  frame_id: "world_vive"
twist: 
  linear: 
    x: 0.1354527324438095
    y: 0.04068205878138542
    z: -0.10382033884525299
  angular: 
    x: -0.2606416642665863
    y: 1.3420809507369995
    z: -0.01721445471048355
---
header: 
  seq: 23620
  stamp: 
    secs: 1682524788
    nsecs: 149237276
  frame_id: "world_vive"
twist: 
  linear: 
    x: 0.1543513685464859
    y: 0.05392858013510704
    z: -0.12249627709388733
  angular: 
    x: -0.3881814777851105
    y: 1.7298164367675781
    z: 0.010622914880514145
---
header: 
  seq: 23621
  stamp: 
    secs: 1682524788
    nsecs: 182528449
  frame_id: "world_vive"
twist: 
  linear: 
    x: 0.16819322109222412
    y: 0.052469756454229355
    z: -0.1484498530626297
  angular: 
    x: -0.3918244540691376
    y: 2.139157772064209
    z: -0.030967405065894127
---
header: 
  seq: 23622
  stamp: 
    secs: 1682524788
    nsecs: 215860246
  frame_id: "world_vive"
twist: 
  linear: 
    x: 0.1784365177154541
    y: 0.04057680442929268
    z: -0.16806882619857788
  angular: 
    x: -0.2985014319419861
    y: 2.341615676879883
    z: 0.006873533595353365
---
header: 
  seq: 23623
  stamp: 
    secs: 1682524788
    nsecs: 249234399
  frame_id: "world_vive"
twist: 
  linear: 
    x: 0.18058067560195923
    y: 0.031174423173069954
    z: -0.19099977612495422
  angular: 
    x: -0.2697296738624573
    y: 2.5134975910186768
    z: -0.017809249460697174
---
header: 
  seq: 23624
  stamp: 
    secs: 1682524788
    nsecs: 282569035
  frame_id: "world_vive"
twist: 
  linear: 
    x: 0.18485507369041443
    y: 0.027043981477618217
    z: -0.2164422571659088
  angular: 
    x: -0.29831579327583313
    y: 2.8165788650512695
    z: -0.11753690987825394
---
header: 
  seq: 23625
  stamp: 
    secs: 1682524788
    nsecs: 315898883
  frame_id: "world_vive"
twist: 
  linear: 
    x: 0.189762145280838
    y: 0.025867052376270294
    z: -0.24130626022815704
  angular: 
    x: -0.26405414938926697
    y: 3.0486698150634766
    z: -0.038139708340168
---
header: 
  seq: 23626
  stamp: 
    secs: 1682524788
    nsecs: 349204680
  frame_id: "world_vive"
twist: 
  linear: 
    x: 0.1796773374080658
    y: 0.027208954095840454
    z: -0.25499293208122253
  angular: 
    x: -0.21205009520053864
    y: 3.0383567810058594
    z: 0.10566887259483337
---
header: 
  seq: 23627
  stamp: 
    secs: 1682524788
    nsecs: 382561733
  frame_id: "world_vive"
twist: 
  linear: 
    x: 0.15229777991771698
    y: 0.021549809724092484
    z: -0.259071946144104
  angular: 
    x: -0.21085672080516815
    y: 2.9041390419006348
    z: 0.07403814792633057
---
header: 
  seq: 23628
  stamp: 
    secs: 1682524788
    nsecs: 415904067
  frame_id: "world_vive"
twist: 
  linear: 
    x: 0.11766085028648376
    y: 0.009542538784444332
    z: -0.25840044021606445
  angular: 
    x: -0.22217969596385956
    y: 2.7313079833984375
    z: -0.03362679108977318
---
header: 
  seq: 23629
  stamp: 
    secs: 1682524788
    nsecs: 449225943
  frame_id: "world_vive"
twist: 
  linear: 
    x: 0.09212226420640945
    y: 0.010853750631213188
    z: -0.2519976794719696
  angular: 
    x: -0.1902431845664978
    y: 2.542283535003662
    z: -0.012307698838412762
---
header: 
  seq: 23630
  stamp: 
    secs: 1682524788
    nsecs: 482557000
  frame_id: "world_vive"
twist: 
  linear: 
    x: 0.06735312938690186
    y: 0.011718646623194218
    z: -0.23182250559329987
  angular: 
    x: -0.22873598337173462
    y: 2.2166121006011963
    z: 0.040226664394140244
---
header: 
  seq: 23631
  stamp: 
    secs: 1682524788
    nsecs: 515900682
  frame_id: "world_vive"
twist: 
  linear: 
    x: 0.042414840310811996
    y: 0.01271393895149231
    z: -0.2168993502855301
  angular: 
    x: -0.224222794175148
    y: 1.970887303352356
    z: 0.08557377755641937
---
header: 
  seq: 23632
  stamp: 
    secs: 1682524788
    nsecs: 549235250
  frame_id: "world_vive"
twist: 
  linear: 
    x: 0.019996948540210724
    y: 0.01784597523510456
    z: -0.21104422211647034
  angular: 
    x: -0.1754845827817917
    y: 1.8866660594940186
    z: 0.12660431861877441
---
header: 
  seq: 23633
  stamp: 
    secs: 1682524788
    nsecs: 582570035
  frame_id: "world_vive"
twist: 
  linear: 
    x: 0.004505883902311325
    y: 0.018331438302993774
    z: -0.19853439927101135
  angular: 
    x: -0.09163405746221542
    y: 1.7582025527954102
    z: 0.16397593915462494
---
header: 
  seq: 23634
  stamp: 
    secs: 1682524788
    nsecs: 615899084
  frame_id: "world_vive"
twist: 
  linear: 
    x: -0.006683011073619127
    y: 0.019202668219804764
    z: -0.18379712104797363
  angular: 
    x: -0.14152978360652924
    y: 1.6307576894760132
    z: 0.22872382402420044
---
header: 
  seq: 23635
  stamp: 
    secs: 1682524788
    nsecs: 649238048
  frame_id: "world_vive"
twist: 
  linear: 
    x: -0.01372594852000475
    y: 0.023174619302153587
    z: -0.1737520396709442
  angular: 
    x: -0.11733391135931015
    y: 1.584546446800232
    z: 0.27552691102027893
---
header: 
  seq: 23636
  stamp: 
    secs: 1682524788
    nsecs: 682579466
  frame_id: "world_vive"
twist: 
  linear: 
    x: -0.024285832419991493
    y: 0.022889740765094757
    z: -0.17313116788864136
  angular: 
    x: -0.011194667778909206
    y: 1.5736504793167114
    z: 0.2997050881385803
---
header: 
  seq: 23637
  stamp: 
    secs: 1682524788
    nsecs: 715900736
  frame_id: "world_vive"
twist: 
  linear: 
    x: -0.03360823914408684
    y: 0.016084475442767143
    z: -0.16159041225910187
  angular: 
    x: 0.033434994518756866
    y: 1.4733142852783203
    z: 0.24981673061847687
---
header: 
  seq: 23638
  stamp: 
    secs: 1682524788
    nsecs: 749246520
  frame_id: "world_vive"
twist: 
  linear: 
    x: -0.03898172825574875
    y: 0.008671862073242664
    z: -0.1411791443824768
  angular: 
    x: -0.028953179717063904
    y: 1.3177094459533691
    z: 0.19194883108139038
---
header: 
  seq: 23639
  stamp: 
    secs: 1682524788
    nsecs: 782569886
  frame_id: "world_vive"
twist: 
  linear: 
    x: -0.041344054043293
    y: 0.013856438919901848
    z: -0.13383403420448303
  angular: 
    x: 0.05311299115419388
    y: 1.247202754020691
    z: 0.2257135659456253
---
header: 
  seq: 23640
  stamp: 
    secs: 1682524788
    nsecs: 815925894
  frame_id: "world_vive"
twist: 
  linear: 
    x: -0.048763204365968704
    y: 0.018233206123113632
    z: -0.13129055500030518
  angular: 
    x: 0.15332700312137604
    y: 1.2840005159378052
    z: 0.26173296570777893
---
header: 
  seq: 23641
  stamp: 
    secs: 1682524788
    nsecs: 849234106
  frame_id: "world_vive"
twist: 
  linear: 
    x: -0.0567346066236496
    y: 0.014444747008383274
    z: -0.1190313920378685
  angular: 
    x: 0.17801283299922943
    y: 1.263643741607666
    z: 0.2054523229598999
---
header: 
  seq: 23642
  stamp: 
    secs: 1682524788
    nsecs: 882580985
  frame_id: "world_vive"
twist: 
  linear: 
    x: -0.05922778695821762
    y: 0.017561141401529312
    z: -0.105650894343853
  angular: 
    x: 0.25696486234664917
    y: 1.1800875663757324
    z: 0.1841268539428711
---
header: 
  seq: 23643
  stamp: 
    secs: 1682524788
    nsecs: 915910837
  frame_id: "world_vive"
twist: 
  linear: 
    x: -0.05845523625612259
    y: 0.017035724595189095
    z: -0.09606809914112091
  angular: 
    x: 0.2827533781528473
    y: 1.0724782943725586
    z: 0.158090740442276
---
header: 
  seq: 23644
  stamp: 
    secs: 1682524788
    nsecs: 949246620
  frame_id: "world_vive"
twist: 
  linear: 
    x: -0.06223864480853081
    y: 0.013361060991883278
    z: -0.0886840969324112
  angular: 
    x: 0.22174982726573944
    y: 1.0261839628219604
    z: 0.21249566972255707
---
header: 
  seq: 23645
  stamp: 
    secs: 1682524788
    nsecs: 982567409
  frame_id: "world_vive"
twist: 
  linear: 
    x: -0.06889169663190842
    y: 0.022603118792176247
    z: -0.09084492176771164
  angular: 
    x: 0.23877011239528656
    y: 1.0966296195983887
    z: 0.2967866063117981
---
header: 
  seq: 23646
  stamp: 
    secs: 1682524789
    nsecs:  15898699
  frame_id: "world_vive"
twist: 
  linear: 
    x: -0.07184101641178131
    y: 0.03229990229010582
    z: -0.09211443364620209
  angular: 
    x: 0.3621765375137329
    y: 1.1120460033416748
    z: 0.3409879207611084
---
header: 
  seq: 23647
  stamp: 
    secs: 1682524789
    nsecs:  49242248
  frame_id: "world_vive"
twist: 
  linear: 
    x: -0.06709171086549759
    y: 0.0283969733864069
    z: -0.08223794400691986
  angular: 
    x: 0.37299492955207825
    y: 0.9980992078781128
    z: 0.31449732184410095
---
header: 
  seq: 23648
  stamp: 
    secs: 1682524789
    nsecs:  82536527
  frame_id: "world_vive"
twist: 
  linear: 
    x: -0.07070282846689224
    y: 0.020128890872001648
    z: -0.07786000519990921
  angular: 
    x: 0.2293093502521515
    y: 0.9383275508880615
    z: 0.3293123245239258
---
header: 
  seq: 23649
  stamp: 
    secs: 1682524789
    nsecs: 115908017
  frame_id: "world_vive"
twist: 
  linear: 
    x: -0.07287665456533432
    y: 0.014014932326972485
    z: -0.06736690551042557
  angular: 
    x: 0.007343614473938942
    y: 0.9398189187049866
    z: 0.3911060094833374
---
header: 
  seq: 23650
  stamp: 
    secs: 1682524789
    nsecs: 149242031
  frame_id: "world_vive"
twist: 
  linear: 
    x: -0.06576654314994812
    y: 0.009480733424425125
    z: -0.05046748369932175
  angular: 
    x: -0.0009312708280049264
    y: 0.7719278335571289
    z: 0.2968013286590576
---
header: 
  seq: 23651
  stamp: 
    secs: 1682524789
    nsecs: 182605375
  frame_id: "world_vive"
twist: 
  linear: 
    x: -0.05002798140048981
    y: 0.0036921240389347076
    z: -0.02709251642227173
  angular: 
    x: 0.028835812583565712
    y: 0.5107141733169556
    z: 0.2091565728187561
---
header: 
  seq: 23652
  stamp: 
    secs: 1682524789
    nsecs: 215911743
  frame_id: "world_vive"
twist: 
  linear: 
    x: -0.03647714480757713
    y: 0.003662283532321453
    z: -0.006270037963986397
  angular: 
    x: -0.03666099160909653
    y: 0.2985590100288391
    z: 0.22809375822544098
---
header: 
  seq: 23653
  stamp: 
    secs: 1682524789
    nsecs: 249229268
  frame_id: "world_vive"
twist: 
  linear: 
    x: -0.03006254881620407
    y: 0.002743755467236042
    z: 0.006363674066960812
  angular: 
    x: 0.026019245386123657
    y: 0.15567471086978912
    z: 0.18180260062217712
---
header: 
  seq: 23654
  stamp: 
    secs: 1682524789
    nsecs: 282568438
  frame_id: "world_vive"
twist: 
  linear: 
    x: -0.0282529778778553
    y: 0.009024225175380707
    z: 0.013592240400612354
  angular: 
    x: 0.07933086901903152
    y: 0.09256245195865631
    z: 0.1797587126493454
---
header: 
  seq: 23655
  stamp: 
    secs: 1682524789
    nsecs: 315902803
  frame_id: "world_vive"
twist: 
  linear: 
    x: -0.025201624259352684
    y: 0.01894829422235489
    z: 0.018876275047659874
  angular: 
    x: 0.13776804506778717
    y: 0.08281766623258591
    z: 0.1711382269859314
---
header: 
  seq: 23656
  stamp: 
    secs: 1682524789
    nsecs: 349239605
  frame_id: "world_vive"
twist: 
  linear: 
    x: -0.015037239529192448
    y: 0.018342329189181328
    z: 0.02789103239774704
  angular: 
    x: 0.18281546235084534
    y: -0.052988242357969284
    z: 0.07472940534353256
---
header: 
  seq: 23657
  stamp: 
    secs: 1682524789
    nsecs: 382567483
  frame_id: "world_vive"
twist: 
  linear: 
    x: 0.003103387774899602
    y: 0.016787812113761902
    z: 0.0449349544942379
  angular: 
    x: 0.18247468769550323
    y: -0.2816752791404724
    z: -0.10078202933073044
---
header: 
  seq: 23658
  stamp: 
    secs: 1682524789
    nsecs: 415903324
  frame_id: "world_vive"
twist: 
  linear: 
    x: 0.027276547625660896
    y: 0.010792569257318974
    z: 0.07992932200431824
  angular: 
    x: 0.13088645040988922
    y: -0.7471759915351868
    z: -0.15768931806087494
---
header: 
  seq: 23659
  stamp: 
    secs: 1682524789
    nsecs: 449194354
  frame_id: "world_vive"
twist: 
  linear: 
    x: 0.0515349842607975
    y: 0.027609936892986298
    z: 0.11967787891626358
  angular: 
    x: -0.04735196381807327
    y: -1.3063825368881226
    z: 0.16284281015396118
---
header: 
  seq: 23660
  stamp: 
    secs: 1682524789
    nsecs: 482524889
  frame_id: "world_vive"
twist: 
  linear: 
    x: 0.07079572230577469
    y: 0.041355524212121964
    z: 0.15191404521465302
  angular: 
    x: 0.0913173034787178
    y: -1.8101868629455566
    z: 0.17462681233882904
---
header: 
  seq: 23661
  stamp: 
    secs: 1682524789
    nsecs: 515906982
  frame_id: "world_vive"
twist: 
  linear: 
    x: 0.07513108104467392
    y: 0.0353618822991848
    z: 0.1715528815984726
  angular: 
    x: 0.2631625235080719
    y: -2.0727291107177734
    z: 0.01773242838680744
---
header: 
  seq: 23662
  stamp: 
    secs: 1682524789
    nsecs: 549235308
  frame_id: "world_vive"
twist: 
  linear: 
    x: 0.07317860424518585
    y: 0.044013798236846924
    z: 0.18809430301189423
  angular: 
    x: 0.2864953279495239
    y: -2.2607314586639404
    z: 0.17176420986652374
---
header: 
  seq: 23663
  stamp: 
    secs: 1682524789
    nsecs: 582547270
  frame_id: "world_vive"
twist: 
  linear: 
    x: 0.06625460088253021
    y: 0.06793828308582306
    z: 0.1939326524734497
  angular: 
    x: 0.2618757486343384
    y: -2.2855002880096436
    z: 0.476430207490921
---
header: 
  seq: 23664
  stamp: 
    secs: 1682524789
    nsecs: 615864372
  frame_id: "world_vive"
twist: 
  linear: 
    x: 0.04212871566414833
    y: 0.06745979189872742
    z: 0.18676385283470154
  angular: 
    x: 0.37953153252601624
    y: -2.1108219623565674
    z: 0.4423986077308655
---
header: 
  seq: 23665
  stamp: 
    secs: 1682524789
    nsecs: 649195046
  frame_id: "world_vive"
twist: 
  linear: 
    x: 0.017659775912761688
    y: 0.07297028601169586
    z: 0.18277357518672943
  angular: 
    x: 0.4037327170372009
    y: -2.0418131351470947
    z: 0.5583170652389526
---
header: 
  seq: 23666
  stamp: 
    secs: 1682524789
    nsecs: 682568256
  frame_id: "world_vive"
twist: 
  linear: 
    x: -0.004293966107070446
    y: 0.09760153293609619
    z: 0.15778547525405884
  angular: 
    x: 0.21823471784591675
    y: -1.8010509014129639
    z: 0.9094329476356506
---
header: 
  seq: 23667
  stamp: 
    secs: 1682524789
    nsecs: 715897551
  frame_id: "world_vive"
twist: 
  linear: 
    x: -0.020587826147675514
    y: 0.0977119579911232
    z: 0.1318141520023346
  angular: 
    x: 0.007458692416548729
    y: -1.3852808475494385
    z: 0.9782931804656982
---
header: 
  seq: 23668
  stamp: 
    secs: 1682524789
    nsecs: 749224846
  frame_id: "world_vive"
twist: 
  linear: 
    x: -0.030731847509741783
    y: 0.08595781028270721
    z: 0.11404144763946533
  angular: 
    x: -0.039692722260951996
    y: -1.0625072717666626
    z: 0.9429166316986084
---
header: 
  seq: 23669
  stamp: 
    secs: 1682524789
    nsecs: 782528455
  frame_id: "world_vive"
twist: 
  linear: 
    x: -0.0302484892308712
    y: 0.08804009109735489
    z: 0.10737217217683792
  angular: 
    x: 0.015953335911035538
    y: -0.9116716980934143
    z: 1.0155081748962402
---
header: 
  seq: 23670
  stamp: 
    secs: 1682524789
    nsecs: 815899067
  frame_id: "world_vive"
twist: 
  linear: 
    x: -0.03155529499053955
    y: 0.0775197371840477
    z: 0.10631317645311356
  angular: 
    x: 0.015330509282648563
    y: -0.793795645236969
    z: 0.9493595361709595
---
header: 
  seq: 23671
  stamp: 
    secs: 1682524789
    nsecs: 849190388
  frame_id: "world_vive"
twist: 
  linear: 
    x: -0.033594585955142975
    y: 0.06467894464731216
    z: 0.10513124614953995
  angular: 
    x: 0.017521364614367485
    y: -0.7106156945228577
    z: 0.8875064849853516
---
header: 
  seq: 23672
  stamp: 
    secs: 1682524789
    nsecs: 882527397
  frame_id: "world_vive"
twist: 
  linear: 
    x: -0.032434940338134766
    y: 0.05976656824350357
    z: 0.10499536991119385
  angular: 
    x: 0.06302256137132645
    y: -0.6452696323394775
    z: 0.7991806268692017
---
header: 
  seq: 23673
  stamp: 
    secs: 1682524789
    nsecs: 915901580
  frame_id: "world_vive"
twist: 
  linear: 
    x: -0.03054945357143879
    y: 0.06452102959156036
    z: 0.10146329551935196
  angular: 
    x: 0.175181046128273
    y: -0.6124116778373718
    z: 0.8544319868087769
---
header: 
  seq: 23674
  stamp: 
    secs: 1682524789
    nsecs: 949255810
  frame_id: "world_vive"
twist: 
  linear: 
    x: -0.03255068510770798
    y: 0.06254471093416214
    z: 0.10354738682508469
  angular: 
    x: 0.24856695532798767
    y: -0.6425487399101257
    z: 0.8953277468681335
---
header: 
  seq: 23675
  stamp: 
    secs: 1682524789
    nsecs: 982567140
  frame_id: "world_vive"
twist: 
  linear: 
    x: -0.039212603121995926
    y: 0.05367560312151909
    z: 0.1016964241862297
  angular: 
    x: 0.28504660725593567
    y: -0.6332497000694275
    z: 0.8533161878585815
---
header: 
  seq: 23676
  stamp: 
    secs: 1682524790
    nsecs:  15900980
  frame_id: "world_vive"
twist: 
  linear: 
    x: -0.046772945672273636
    y: 0.05633102357387543
    z: 0.09846105426549911
  angular: 
    x: 0.30569037795066833
    y: -0.6419025659561157
    z: 0.9238181114196777
---
header: 
  seq: 23677
  stamp: 
    secs: 1682524790
    nsecs:  49199151
  frame_id: "world_vive"
twist: 
  linear: 
    x: -0.05726360157132149
    y: 0.05755624920129776
    z: 0.09342578053474426
  angular: 
    x: 0.30369576811790466
    y: -0.6341703534126282
    z: 1.0273023843765259
---
header: 
  seq: 23678
  stamp: 
    secs: 1682524790
    nsecs:  82562827
  frame_id: "world_vive"
twist: 
  linear: 
    x: -0.07232001423835754
    y: 0.05984191596508026
    z: 0.08470329642295837
  angular: 
    x: 0.2965559661388397
    y: -0.6340157985687256
    z: 1.1841387748718262
---
header: 
  seq: 23679
  stamp: 
    secs: 1682524790
    nsecs: 115900785
  frame_id: "world_vive"
twist: 
  linear: 
    x: -0.09071230888366699
    y: 0.05808750540018082
    z: 0.07273747026920319
  angular: 
    x: 0.22550101578235626
    y: -0.6593349575996399
    z: 1.2861216068267822
---
header: 
  seq: 23680
  stamp: 
    secs: 1682524790
    nsecs: 149234763
  frame_id: "world_vive"
twist: 
  linear: 
    x: -0.10470474511384964
    y: 0.04539639502763748
    z: 0.05664125084877014
  angular: 
    x: 0.06225868687033653
    y: -0.6511265635490417
    z: 1.164597511291504
---
header: 
  seq: 23681
  stamp: 
    secs: 1682524790
    nsecs: 182524094
  frame_id: "world_vive"
twist: 
  linear: 
    x: -0.11770175397396088
    y: 0.028174854815006256
    z: 0.03695003688335419
  angular: 
    x: -0.0798117145895958
    y: -0.605974555015564
    z: 1.0018874406814575
---
header: 
  seq: 23682
  stamp: 
    secs: 1682524790
    nsecs: 215899976
  frame_id: "world_vive"
twist: 
  linear: 
    x: -0.12887416779994965
    y: 0.03091505356132984
    z: 0.01942651905119419
  angular: 
    x: -0.19588062167167664
    y: -0.5762856006622314
    z: 1.0648374557495117
---
header: 
  seq: 23683
  stamp: 
    secs: 1682524790
    nsecs: 249232134
  frame_id: "world_vive"
twist: 
  linear: 
    x: -0.13586747646331787
    y: 0.03669494017958641
    z: 0.0027179080061614513
  angular: 
    x: -0.2695804536342621
    y: -0.521124541759491
    z: 1.283729910850525
---
header: 
  seq: 23684
  stamp: 
    secs: 1682524790
    nsecs: 282570836
  frame_id: "world_vive"
twist: 
  linear: 
    x: -0.13750480115413666
    y: 0.029602695256471634
    z: -0.0039788177236914635
  angular: 
    x: -0.2467849850654602
    y: -0.5271306037902832
    z: 1.2406929731369019
---
header: 
  seq: 23685
  stamp: 
    secs: 1682524790
    nsecs: 315900708
  frame_id: "world_vive"
twist: 
  linear: 
    x: -0.13132992386817932
    y: 0.02483346313238144
    z: -0.008735782466828823
  angular: 
    x: -0.25600478053092957
    y: -0.5028762221336365
    z: 0.9745830297470093
---
